agency_type,FIPS,agency_name_full,population_21,months_reported_in_21,is_nibrs_2022,months_reported_in_22,violent_crime_2020,property_crime_2020,murder_2020,total_crime_2020,longitude,latitude,Info,County
City,36001,albany police department,17188,0,1,12,869,2671,16,3540,-73.7605,42.6628,,Albany
County,36001,albany county sheriff's office,96318,0,1,12,12,111,0,123,-73.7534014,42.6526907,,Albany
City,36001,cohoes police department,16746,0,0,0,11,62,0,73,-73.708412,42.774475,,Albany
City,36001,watervliet police department,9863,0,0,0,26,130,0,156,-73.7003,42.7255,,Albany
City,36001,green island vlg police dept,2623,0,0,0,0,0,0,0,-73.69221265,42.74201605,,Albany
City,36001,altamont village police department,1664,0,0,0,2,4,0,6,-74.02494083,42.70262865,,Albany
City,36001,menands village police department,3850,0,0,0,3,129,0,132,-73.724768,42.692342,,Albany
City,36001,bethlehem town police department,35039,12,1,12,26,380,1,406,-73.8398061,42.6202585,,Albany
City,36001,guilderland town police department,34103,0,0,0,25,677,0,702,-73.93639,42.71746,,Albany
City,36001,colonie town police department,79082,12,1,12,83,1858,0,1941,-73.79268,42.73672,,Albany
City,36001,coeymans town police department,7247,0,0,0,8,41,0,49,-73.8092,42.4694,,Albany
County,36003,allegany county sheriff's office,27490,0,0,0,0,1,0,1,-78.01703,42.21256,,Allegany
City,36003,alfred village police department,3970,0,0,0,1,17,0,18,-77.79055,42.254238,,Allegany
City,36003,andover village police department,970,0,0,0,0,0,0,0,-77.795354,42.157456,,Allegany
City,36003,angelica vlg police dept,812,0,0,0,0,0,0,0,-78.02065,42.30551,,Allegany
City,36003,bolivar village police department,968,0,0,0,0,5,0,5,-78.167078,42.067669,,Allegany
City,36003,cuba town police department,3059,0,0,0,2,31,1,33,-78.28233,42.21616,,Allegany
City,36003,wellsville village police department,4343,0,0,0,9,30,0,39,-77.943198,42.118725,,Allegany
City,36003,friendship town police dept,1854,0,0,0,0,4,0,4,-78.1370321,42.2060339,,Allegany
City,36003,belmont village police department,895,0,0,0,,,,,-78.027811,42.225261,,Allegany
City,36003,independence town police dept,1130,0,0,0,0,3,0,3,-77.768486,42.037052,,Allegany
County,36007,broome county sheriff's office,87473,12,1,12,34,461,1,495,-75.916673,42.1324788,,Broome
City,36007,binghamton police department,44083,12,1,12,372,1790,1,2162,-75.96617818,42.09640682,,Broome
City,36007,endicott village police department,12443,12,1,12,52,399,0,451,-76.0500723,42.0986588,,Broome
City,36007,johnson city village police department,14055,12,1,12,65,884,1,949,-75.9588092,42.1156308,,Broome
City,36007,port dickinson village police department,1513,0,0,0,0,0,0,0,-75.8963066,42.133409,,Broome
City,36007,vestal town police department,28639,12,1,12,14,469,0,483,-76.053575,42.0855898,,Broome
County,36009,cattaraugus county sheriff's office,48039,12,1,12,40,199,0,239,-78.8010079,42.2522344,,Cattaraugus
City,36009,olean police department,13334,12,1,12,25,243,0,268,-78.4287036,42.0777431,,Cattaraugus
City,36009,allegany village police department,1685,0,0,0,1,7,0,8,-78.4941887,42.0900647,,Cattaraugus
City,36009,ellicottville town police department,1563,0,0,0,0,20,0,20,-78.6728071,42.2750639,,Cattaraugus
City,36009,franklinville village police department,1618,0,0,0,0,3,0,3,-78.4580761,42.3370091,,Cattaraugus
City,36009,cattaraugus vlg police dept,897,0,0,0,0,2,0,2,-78.8680903,42.3292287,,Cattaraugus
City,36009,portville village police department,941,0,0,0,0,0,0,0,-78.3408496,42.0386764,,Cattaraugus
City,36009,salamanca police department,5360,0,0,0,18,44,1,62,-78.7082744,42.1575575,,Cattaraugus
Other State Agency,36009,nys park police allegany region,0,0,0,0,0,0,0,0,-74.2179326,43.2994285,,Allegany
County,36011,cayuga county sheriff's office,45642,0,1,11,11,39,1,50,-76.5433502,42.9793052,,Cayuga
City,36011,auburn police department,26012,12,1,11,51,380,0,431,-76.5654,42.9335,,Cayuga
City,36011,weedsport village police department,1695,0,0,0,0,14,0,14,-76.5627197,43.048677,,Cayuga
City,36011,port byron vlg police dept,1182,0,0,0,0,0,0,0,-76.6238343,43.0345099,,Cayuga
City,36011,moravia village police department,1201,0,0,0,0,9,0,9,-76.4276933,42.7149963,,Cayuga
County,36013,chautauqua county sheriff's office,56186,12,1,12,37,318,0,355,-79.5039972,42.2545569,,Chautauqua
City,36013,dunkirk police department,11673,12,1,12,27,249,0,276,-79.33402,42.4834594,,Chautauqua
City,36013,jamestown police department,28842,12,1,12,187,692,1,879,-79.2353259,42.0970023,,Chautauqua
City,36013,lakewood-busti police department,7125,12,1,12,5,344,0,349,-79.3127543,42.0323232,,Chautauqua
City,36013,fredonia village police department,10205,11,1,10,11,299,0,310,-79.3317105,42.4400576,,Chautauqua
City,36013,westfield village police department,2941,11,1,12,3,10,0,13,-79.576015,42.3222049,,Chautauqua
City,36013,carroll town police dept,3309,11,1,11,0,25,0,25,-79.159843,42.0527015,,Chautauqua
City,36013,ellicott town police department,4981,11,1,7,11,234,0,245,-79.193,42.1163,,Chautauqua
County,36015,chemung county sheriff's office,39899,0,0,0,9,172,0,181,-76.8010101,42.090805,,Chemung
City,36015,elmira police department,26820,0,0,0,59,818,2,877,-76.8077338,42.0897965,,Chemung
City,36015,elmira heights village police department,3774,0,0,0,2,84,0,86,-76.8207898,42.1297967,,Chemung
City,36015,horseheads village police department,6325,0,0,0,14,97,0,111,-76.8205119,42.167019,,Chemung
City,36015,elmira town police department,5529,0,0,0,0,0,0,0,-76.8077338,42.0897965,,Chemung
County,36017,chenango county sheriff's office,32422,0,0,0,22,235,0,257,-75.538678,42.5072663,,Chenango
City,36017,afton village police department,795,0,0,0,0,0,0,0,-75.5284648,42.2314619,,Chenango
City,36017,bainbridge village police department,1296,0,0,0,0,0,0,0,-75.479962,42.2943,,Chenango
City,36017,greene village police department,1400,0,0,0,0,14,0,14,-75.7711924,42.3297316,,Chenango
City,36017,norwich police department,6474,0,1,9,28,169,0,197,-75.522379,42.531024,,Chenango
City,36017,oxford village police department,1372,0,0,0,0,3,0,3,-75.601504,42.443377,,Chenango
City,36017,sherburne village police department,1301,0,0,0,3,13,0,16,-75.5003,42.678416,,Chenango
City,36017,new berlin town police department,1507,0,0,0,0,5,0,5,-75.3321,42.6252,,Chenango
County,36019,clinton county sheriff's office,60338,0,0,0,0,0,0,0,-73.4672,44.7202,,Clinton
City,36019,plattsburgh police department,19460,0,0,0,27,240,0,267,-73.4543886,44.6922706,,Clinton
County,36021,columbia county sheriff's office,43015,0,0,0,26,254,0,280,-73.7564,42.2493,,Columbia
City,36021,hudson police department,6004,12,1,8,22,158,0,180,-73.788767,42.249985,,Columbia
City,36021,philmont vlg police dept,1246,0,0,0,0,0,0,0,-73.64855,42.24948,,Columbia
City,36021,greenport town police department,4246,0,0,0,1,23,0,24,-72.3592501,41.1034326,,Columbia
City,36021,chatham village police department,1606,0,0,0,0,1,0,1,-73.59467,42.36364,,Columbia
City,36021,columbia greene humane society,2585,0,0,0,0,0,0,0,-73.748558,42.2675743,,Columbia
County,36023,cortland county sheriff's office,25399,0,1,11,15,97,1,112,-75.9927652,42.5440918,,Cortland
City,36023,cortland police department,18615,0,1,12,49,514,0,563,-76.1784759,42.5990963,,Cortland
City,36023,homer village police department,3081,0,0,0,0,1,0,1,-76.182519,42.637662,,Cortland
County,36025,delaware county sheriff's office,31333,0,0,0,30,160,1,190,-74.785804,42.188935,,Delaware
City,36025,delhi village police department,2935,0,0,0,2,24,0,26,-74.918,42.27866,,Delaware
City,36025,hancock village police department,923,0,0,0,1,8,0,9,-75.280438,41.954376,,Delaware
City,36025,sidney village police department,3553,0,0,0,6,41,0,47,-75.390512,42.317222,,Delaware
City,36025,walton village police department,2768,0,0,0,0,0,0,0,-75.135056,42.171396,,Delaware
City,36025,colchester town police department,1947,0,0,0,1,9,0,10,-74.994889,42.08182,,Delaware
County,36027,dutchess county sheriff's office,117314,12,1,12,34,376,0,410,-73.921878,41.7125166,,Dutchess
City,36027,beacon police department,13984,12,1,12,15,124,0,139,-73.9784785,41.508021,,Dutchess
City,36027,poughkeepsie police department,30480,0,0,0,243,530,6,773,-73.9209701,41.7003713,,Dutchess
City,36027,fishkill village police department,2153,0,1,12,2,30,0,32,-73.8990252,41.5356492,,Dutchess
City,36027,millerton vlg police dept,2938,0,0,0,,,,,-73.5106791,41.9537035,,Dutchess
City,36027,wappingers falls village police department,5540,0,0,0,7,39,0,46,-73.91097,41.5964825,,Dutchess
City,36027,red hook village police department,1951,0,0,0,5,33,0,38,-73.8754114,41.9950919,,Dutchess
City,36027,rhinebeck vlg police dept,2554,0,0,0,1,18,0,19,-73.9074372,41.9318294,,Dutchess
City,36027,millbrook village police department,1400,0,0,0,0,0,0,0,-73.6921568,41.7866308,,Dutchess
City,36027,town of pine plains police dept,2399,0,0,0,0,1,0,1,-73.6559602,41.9798143,,Dutchess
City,36027,poughkeepsie town police department,38934,11,1,12,69,903,0,972,-73.8891799,41.7047967,,Dutchess
City,36027,fishkill town police department,21973,0,0,0,5,353,0,358,-73.9230265,41.5260773,,Dutchess
City,36027,hyde park town police department,20766,12,1,12,9,36,0,45,-73.910354,41.789538,,Dutchess
City,36027,east fishkill town police department,29578,12,1,9,12,137,0,149,-73.7956884,41.5534267,,Dutchess
Other State Agency,36027,nys park police taconic region,0,0,0,0,0,0,0,0,-73.9309163,41.8425586,,Westchester
County,36029,erie county sheriff's office,126954,0,0,0,52,575,2,627,-78.7476208,42.6974933,,Erie
City,36029,buffalo police department,254627,12,1,12,2592,7965,61,10557,-78.8783689,42.8864468,,Erie
City,36029,lackawanna police department,17674,0,0,0,100,352,0,452,-78.8251728,42.8261596,,Erie
City,36029,tonawanda police department,14700,0,0,0,46,287,1,333,-78.880315,43.0203347,,Erie
City,36029,kenmore village police department,14968,0,1,7,37,242,0,279,-78.8783432,42.9624831,,Erie
City,36029,east aurora village pd east aurora,13748,0,0,0,3,76,0,79,-78.6133589,42.7678376,,Erie
City,36029,depew village police department,14965,0,0,0,23,230,0,253,-78.6922515,42.9039476,,Erie
City,36009,gowanda village police department,2531,0,0,0,4,36,0,40,-78.935868,42.4631167,,Erie
City,36029,blasdell village pd blasdell,2671,0,0,0,4,32,0,36,-78.8233661,42.797281,,Erie
City,36029,hamburg village police department,9744,0,0,0,6,71,0,77,-78.8332013,42.7158749,,Erie
City,36029,akron village police department,2852,0,0,0,0,6,0,6,-78.501958,43.019776,,Erie
Other,36029,niagara frontier transportation authority,0,0,0,0,,,,,-78.872036,42.883393,,Erie
City,36029,amherst town police department,121304,0,0,0,153,1865,0,2018,-78.779998,43.013667,,Erie
City,36029,brant town police dept,2056,0,0,0,0,15,0,15,-79.015503,42.588425,,Erie
City,36029,cheektowaga town police department,76536,0,0,0,216,2237,1,2453,-78.7542892,42.9071477,,Erie
City,36029,orchard park town police department,29653,0,0,0,8,277,0,285,-78.7439189,42.7675593,,Erie
City,36029,eden town police department,7602,0,0,0,1,22,0,23,-78.8954,42.6523,,Erie
City,36029,evans town police department,16061,0,0,0,23,156,0,179,-79.0417851,42.6466036,,Erie
City,36029,hamburg town police department,46513,0,0,0,51,675,0,726,-78.824408,42.729148,,Erie
City,36029,lancaster town police department,37633,0,0,0,12,347,0,359,-78.6703,42.9001,,Erie
City,36029,tonawanda town police department,56503,0,0,0,85,848,2,933,-78.8723971,42.9886849,,Erie
City,36029,west seneca town police department,45278,0,0,0,59,590,0,649,-78.7538895,42.8358977,,Erie
County,36031,essex county sheriff's office,23380,0,0,0,1,1,0,2,-73.536718,44.2821,,Essex
City,36031,lake placid village police department,2339,0,0,0,7,16,0,23,-73.9798713,44.2794911,,Essex
City,36031,ticonderoga town police department,4725,0,0,0,6,23,0,29,-73.4234531,43.8486707,,Essex
City,36031,moriah town police department,4437,0,0,0,0,0,0,0,-73.4578018,44.0428009,,Essex
County,36033,franklin county sheriff's office,36872,0,0,0,0,0,0,0,-74.318688,44.869045,,Franklin
City,36033,tupper lake village police department,3420,0,0,0,1,25,0,26,-74.4640575,44.2239488,,Franklin
City,36033,saranac lake village police department,5177,0,0,0,1,5,0,6,-74.1312662,44.329496,,Franklin
City,36033,malone village police department,5566,0,0,0,32,191,0,223,-74.2948983,44.8486596,,Franklin
County,36035,fulton county sheriff's office,28811,0,0,0,13,244,0,257,-74.351054,43.018457,,Fulton
City,36035,gloversville police department,14656,0,1,7,79,404,1,483,-74.3493359,43.0517167,,Fulton
City,36035,johnstown police department,8183,0,1,10,10,128,0,138,-74.3699,43.0067,,Fulton
City,36035,northville village police department,1048,0,0,0,0,3,0,3,-72.618982,40.970099,,Fulton
County,36037,genesee county sheriff's office,37985,11,1,11,26,234,0,260,-78.1992786,43.0148533,,Genesee
City,36037,batavia police department,14278,12,1,12,64,345,0,409,-78.187534,42.99848,,Genesee
City,36037,le roy village police department,4246,0,0,0,1,18,0,19,-77.9842,42.9784,,Genesee
County,36039,greene county sheriff's office,25316,0,0,0,11,26,0,37,-73.8639,42.2175,,Greene
City,36039,athens village police department,1590,0,0,0,0,0,0,0,-73.8105224,42.2624216,,Greene
City,36039,catskill village police department,3787,0,0,0,6,71,0,77,-73.8658419,42.2204709,,Greene
City,36039,coxsackie village police department,2655,0,0,0,0,1,0,1,-73.8029028,42.3509179,,Greene
City,36039,windham town police department,1672,0,0,0,0,5,0,5,-74.315449,42.098715,,Greene
City,36039,hunter town police department,2620,0,0,0,0,20,0,20,-74.120967,42.196047,,Greene
City,36039,durham town police dept,2648,0,0,0,0,1,0,1,-74.131839,42.404199,,Greene
City,36039,cairo town police department,6390,0,0,0,3,40,0,43,-73.998459,42.300795,,Greene
County,36041,hamilton county sheriff's office,4041,0,0,0,0,10,0,10,-74.4112,43.4692,,Hamilton
City,36041,inlet town police department,301,0,0,0,1,4,0,5,-74.79722,43.764843,,Hamilton
County,36043,herkimer county sheriff's office,27783,0,0,0,0,0,0,0,-74.9891568,43.0285089,,Herkimer
City,36043,frankfort village police department,2409,0,0,0,3,7,0,10,-75.07203,43.03436,,Herkimer
City,36043,ilion village police department,7613,12,1,12,28,195,0,223,-75.0354347,43.0150703,,Herkimer
City,36043,mohawk police department,2507,0,0,0,2,23,0,25,-75.0053104,43.0090818,,Herkimer
City,36043,herkimer village police department,7212,0,0,0,10,289,0,299,-74.9859889,43.0256259,,Herkimer
City,36043,dolgeville village police department,2055,0,0,0,1,20,0,21,-74.772927,43.1009037,,Herkimer
City,36043,little falls police department,4604,0,0,0,12,63,1,75,-74.855717,43.044486,,Herkimer
City,36043,webb town police department,1779,0,0,0,0,1,0,1,-74.9707,43.7124,,Herkimer
City,36043,frankfort town police department,4752,0,0,0,4,22,0,26,-75.07203,43.03436,,Herkimer
County,36045,jefferson county sheriff's office,67464,12,1,12,10,190,0,200,-75.9277,43.9728,,Jefferson
City,36045,watertown police department,24624,12,1,12,181,975,0,1156,-75.92827302,43.97298842,,Jefferson
City,36045,adams vlg police dept,1706,0,0,0,0,3,0,3,-76.0250533,43.8075111,,Jefferson
City,36045,alexandria bay vlg police dept,1023,0,0,0,0,3,0,3,-75.9177309,44.3358836,,Jefferson
City,36045,brownville village pd brownville,1076,0,0,0,0,2,0,2,-76.01598,44.0449586,,Jefferson
City,36045,dexter vlg police dept,992,0,0,0,0,2,0,2,-76.04645,44.009114,,Jefferson
City,36045,glen park village rd watertown,469,0,0,0,0,1,0,1,-75.9107565,43.9747838,,Jefferson
City,36045,cape vincent village police department,689,0,0,0,0,1,0,1,-76.2942507,44.1165751,,Jefferson
City,36045,west carthage police dept,1925,0,0,0,1,11,0,12,-75.6151927,43.9742346,,Jefferson
City,36045,clayton village police department,1816,0,0,0,0,3,0,3,-76.08431,44.239671,,Jefferson
City,36045,sacketts harbor vlg police dept,1391,0,0,0,0,0,0,0,-76.1190929,43.9461707,,Jefferson
City,36045,black river village pd black river,1229,0,0,0,0,3,0,3,-75.7943671,44.0125639,,Jefferson
City,36045,theresa village pd theresa,772,0,0,0,0,0,0,0,-75.797097,44.215905,,Jefferson
City,36045,carthage village police department,3250,0,0,0,4,53,0,57,-75.60899,43.977211,,Jefferson
Other State Agency,36045,thousand is st pk & rec comm pd alexandria bay,0,0,0,0,0,0,0,0,-75.9177309,44.3358836,,Jefferson
County,36049,lewis county sheriff's office,22747,12,1,12,3,21,0,24,-75.5009,43.779,,Lewis
City,36049,lowville village police department,3297,0,0,0,2,8,0,10,-75.4844634,43.7966463,,Lewis
County,36051,livingston county sheriff's office,38801,8,1,10,16,118,0,134,-77.8367282,42.7576923,,Livingston
City,36051,avon village police department,3272,0,0,0,0,0,0,0,-77.74632,42.9109443,,Livingston
City,36051,caledonia village police department,2083,0,0,0,0,2,0,2,-77.854827,42.973612,,Livingston
City,36051,geneseo village police department,8130,0,0,0,1,75,0,76,-77.8166351,42.7951716,,Livingston
City,36051,mount morris village police department,2765,0,0,0,5,51,0,56,-77.872551,42.724218,,Livingston
City,36051,dansville village police department,4341,0,0,0,2,53,0,55,-77.696106,42.5608999,,Livingston
City,36051,nunda town & village police department,2871,0,0,0,0,0,0,0,-77.942503,42.5795085,,Livingston
County,36053,madison county sheriff's office,43099,0,0,0,20,100,1,120,-75.706499,43.079906,,Madison
City,36053,oneida police department,10849,0,1,12,67,481,1,548,-75.6524968,43.095697,,Madison
County,36065,oneida county sheriff's office,78748,12,1,12,47,,1,,-75.3767285,43.1559399,,Oneida
City,36053,cazenovia village police department,2851,0,0,0,2,20,0,22,-75.8526915,42.9300668,,Madison
City,36053,hamilton village police department,4077,0,0,0,0,5,0,5,-75.557037,42.842714,,Madison
City,36053,canastota village police department,4518,0,0,0,6,35,0,41,-75.7518391,43.077744,,Madison
City,36053,chittenango village police department,4826,0,0,0,3,19,0,22,-75.86658,43.0450671,,Madison
County,36055,monroe county sheriff's office,236185,12,1,12,134,2018,0,2152,-77.6039186,43.2550676,,Monroe
City,36055,rochester police department,205199,0,1,12,1680,7039,48,8719,-77.6116,43.152,,Monroe
City,36055,irondequoit town police department,49889,10,1,11,0,0,0,0,-77.5797226,43.2133955,,Monroe
City,36055,east rochester village police department,6476,12,1,12,7,72,0,79,-77.4874959,43.1086741,,Monroe
City,36055,fairport village police department,5300,12,1,12,2,28,0,30,-77.4419378,43.0986742,,Monroe
City,36055,brockport village police department,8142,12,1,12,10,52,0,62,-77.9391797,43.2136713,,Monroe
City,36055,brighton town police department,35853,12,1,12,34,705,0,739,-77.575902,43.126804,,Monroe
City,36055,gates town police department,28222,0,0,0,65,731,0,796,-77.69419971,43.14923493,,Monroe
City,36055,greece town police department,95431,12,1,12,150,1714,2,1864,-77.6930602,43.2097837,,Monroe
City,36055,ogden town police department,20603,12,1,12,11,156,0,167,-77.802826,43.17041,,Monroe
City,36055,webster town police department,45449,12,1,12,27,367,0,394,-77.457746,43.209645,,Monroe
County,36057,montgomery county sheriff's office,25113,12,1,11,6,238,0,244,-74.3325,42.9338,,Montgomery
City,36057,amsterdam police department,17675,0,0,0,37,284,0,321,-74.1906738,42.938343,,Montgomery
City,36057,canajoharie village police department,2122,0,0,0,1,14,0,15,-74.5718073,42.9056288,,Montgomery
City,36057,fort plain village police department,2212,0,0,0,8,52,0,60,-74.6226425,42.9314616,,Montgomery
City,36057,saint johnsville village police department,1668,0,0,0,1,15,0,16,-74.6781003,43.0012346,,Montgomery
County,36059,nassau county police department,1053945,0,0,0,1304,8610,14,9914,-73.5594128,40.6546145,,Nassau
City,36059,glen cove police department,27186,0,0,0,3,108,0,111,-73.6315221,40.863201,,Nassau
City,36059,long beach police department,33461,0,0,0,13,46,0,59,-73.666382,40.589559,,Nassau
City,36059,floral park village police department,15844,0,0,0,10,61,0,71,-73.7048532,40.7237133,,Nassau
City,36059,freeport village police department,42962,0,1,7,73,263,1,336,-73.5831835,40.6576022,,Nassau
City,36059,garden city village police department,22465,0,0,0,5,243,0,248,-73.6342954,40.7267682,,Nassau
City,36059,hempstead village police department,55230,12,1,12,357,571,8,928,-73.6229361,40.7103658,,Nassau
City,36059,lynbrook village police department,19441,0,0,0,15,115,0,130,-73.6717969,40.6548253,,Nassau
City,36059,rockville centre police department,24604,0,0,0,14,106,0,120,-73.6433192,40.6586305,,Nassau
City,36059,great neck estates village police department,2892,0,0,0,1,8,0,9,-73.7367983,40.7870459,,Nassau
City,36059,sands point village police department,2919,0,0,0,1,12,0,13,-73.718742,40.8517669,,Nassau
City,36059,malverne village police department,8482,0,0,0,0,16,0,16,-73.6740191,40.6789916,,Nassau
City,36059,kensington village police department,1193,0,0,0,0,0,0,0,-73.73024,40.7907,,Nassau
City,36059,old westbury village police department,4603,12,1,12,1,21,0,22,-73.5995717,40.7887113,,Nassau
City,36059,kings point village police department,5315,0,0,0,0,12,0,12,-73.7351316,40.8198231,,Nassau
City,36059,centre island village police department,409,0,0,0,0,1,0,1,-73.5198453,40.9017651,,Nassau
City,36059,port washington police district,19391,0,0,0,8,115,0,123,-73.6981858,40.8256561,,Nassau
City,36059,lake success village police department,3161,0,0,0,0,14,0,14,-73.7090428,40.7698453,,Nassau
City,36059,old brookville village police department,2196,0,0,0,1,47,0,48,-73.6048493,40.8320441,,Nassau
City,36059,oyster bay cove village police department,4300,0,0,0,0,17,0,17,-73.5109566,40.8709319,,Nassau
University or College,36059,us merchant marine academy kings point,0,0,0,0,0,0,0,0,-73.7625503,40.8129628,,Nassau
City,36061,new york city police department,8300377,0,0,0,47959,129361,468,177320,-74.0059728,40.7127753,,-
Other State Agency,36061,nys park police new york city region,0,0,0,0,0,0,0,0,-74.0059728,40.7127753,,-
Other,36061,metro north rr pd metro transit auth new york,0,0,0,0,0,0,0,0,-74.0059728,40.7127753,,Niagara
County,36063,niagara county sheriff's office,79559,12,1,12,28,542,0,570,-78.7476208,43.3119496,,Niagara
City,36063,lockport police department,20212,0,0,0,116,491,0,607,-78.6956544,43.1695835,,Niagara
City,36063,niagara falls police department,47474,12,1,12,369,1951,9,2320,-79.0525793,43.1061727,,Niagara
City,36063,north tonawanda police department,30104,12,1,12,37,331,0,368,-78.8699787,43.029534,,Niagara
City,36063,middleport village police department,1733,0,0,0,1,11,0,12,-78.4764143,43.2125581,,Niagara
City,36063,youngstown vlg police dept,1871,12,1,6,0,1,0,1,-79.04677569,43.25075266,,Niagara
City,36063,barker village police department,504,0,0,0,,,,,-78.549813,43.329937,,Niagara
City,36063,lewiston town police department,15671,6,1,11,4,87,0,91,-79.01717,43.218047,,Niagara
City,36063,niagara town police department,8012,9,1,12,1,196,0,197,-79.061,43.0923,,Niagara
City,36063,somerset town pd barker,2032,6,1,6,,,,,-78.550099,43.337006,,Niagara
Other State Agency,36063,nys park police niagara region,0,0,0,0,0,0,0,0,-74.2179326,43.2994285,,Niagara
City,36065,rome police department,31978,12,1,12,65,570,0,635,-75.4553,43.2134,,Oneida
City,36065,utica police department,59483,12,1,12,298,2023,1,2321,-75.233549,43.1041147,,Oneida
City,36065,boonville village police department,1974,0,0,0,0,20,0,20,-75.316025,43.475453,,Oneida
City,36065,camden village police department,2151,0,0,0,0,22,0,22,-75.752284,43.341013,,Oneida
City,36065,sherrill police department,2964,0,1,12,0,18,0,18,-75.5994344,43.0722949,,Oneida
City,36065,vernon village police department,1142,0,0,0,3,3,0,6,-75.53825,43.07763,,Oneida
City,36065,whitesboro village police department,3595,0,0,0,0,0,0,0,-75.2948584,43.1237769,,Oneida
City,36065,yorkville village police department,2556,0,0,0,0,0,0,0,-75.2778874,43.1127507,,Oneida
City,36065,oriskany vlg police dept,1321,0,0,0,0,7,0,7,-75.3326692,43.1572918,,Oneida
City,36065,new york mills village police department,3200,0,0,0,2,44,0,46,-75.292136,43.103516,,Oneida
City,36065,new hartford town police department,20173,12,1,12,18,467,0,485,-75.2876661,43.073403,,Oneida
City,36065,whitestown town police department,8948,0,0,0,0,20,0,20,-75.3231,43.10752,,Oneida
City,36065,kirkland town police department,8323,0,0,0,0,0,0,0,-75.376903,43.0914401,,Oneida
County,36067,onondaga county sheriff's office,174528,0,0,0,219,1689,1,1908,-76.147175,43.047802,,Onondaga
City,36067,syracuse police department,142011,0,0,0,1192,4057,32,5249,-76.1474244,43.0481221,,Onondaga
City,36067,jordan village police department,1294,0,0,0,0,3,0,3,-76.472211,43.065564,,Onondaga
City,36067,solvay village police department,6196,0,0,0,14,66,0,80,-76.2074263,43.0581222,,Onondaga
City,36067,baldwinsville village police department,7895,0,0,0,4,51,0,55,-76.3327095,43.1586786,,Onondaga
City,36067,manlius town police department,24139,0,0,0,15,261,0,276,-75.9768632,43.0020107,,Onondaga
City,36067,marcellus vlg police dept,1707,0,0,0,0,7,0,7,-76.341465,42.982581,,Onondaga
City,36067,liverpool village police department,2191,0,0,0,0,10,0,10,-76.20921,43.10419,,Onondaga
City,36067,skaneateles village police department,2466,0,0,0,0,21,0,21,-76.4291017,42.947011,,Onondaga
City,36067,north syracuse village police department,6607,0,0,0,15,109,0,124,-76.1299238,43.1347897,,Onondaga
City,36067,camillus town and village police department,24098,0,0,0,13,266,0,279,-76.3040965,43.039233,,Onondaga
City,36067,cicero town police department,28755,0,0,0,14,291,0,305,-76.1158173,43.1693611,,Onondaga
City,36067,dewitt town police department,24947,0,0,0,46,725,0,771,-76.04938,43.046627,,Onondaga
City,36067,geddes town police department,10002,0,0,0,6,176,0,182,-76.211796,43.060488,,Onondaga
Other State Agency,36067,nys park police central region,0,0,0,0,0,0,0,0,-74.2179326,43.2994285,,-
County,36069,ontario county sheriff's office,81092,0,0,0,58,708,1,766,-77.2864879,42.8509838,,Ontario
City,36069,geneva police department,12569,0,0,0,38,173,0,211,-76.9791,42.871,,Ontario
City,36069,clifton springs village police department,1993,0,0,0,0,0,0,0,-77.1399756,42.9617304,,Ontario
City,36069,manchester vlg police dept,1603,0,0,0,0,0,0,0,-77.220691,42.955914,,Ontario
City,36069,phelps vlg police dept,1889,0,0,0,0,0,0,0,-77.060927,42.960084,,Ontario
City,36069,canandaigua police department,10112,0,0,0,37,220,1,257,-77.2816984,42.887535,,Ontario
County,36071,orange county sheriff's office,63383,0,0,0,2,15,0,17,-74.3602,41.4046,,Orange
City,36071,middletown police department,28194,12,1,12,90,385,1,475,-74.4218,41.4454,,Orange
City,36071,newburgh city police department,28095,0,0,0,285,724,4,1009,-74.0104178,41.5034271,,Orange
City,36071,washingtonville village police department,5755,0,0,0,2,30,0,32,-74.1659798,41.4278716,,Orange
City,36071,chester village police department,4108,0,1,12,2,13,0,15,-74.27236,41.36195,,Orange
City,36071,cornwall-on-hudson village police department,2911,0,0,0,0,21,0,21,-74.0156961,41.444816,,Orange
City,36071,goshen village police department,5361,0,0,0,2,21,0,23,-74.3267848,41.4022074,,Orange
City,36071,highland falls village police department,3822,0,0,0,0,11,0,11,-73.9662504,41.3692605,,Orange
City,36071,monroe village police department,8609,0,0,0,3,97,0,100,-74.1869,41.3277,,Orange
City,36071,montgomery vlg police dept,4617,0,0,0,0,6,0,6,-74.2412637,41.5250832,,Orange
City,36071,walden village police department,6666,12,1,12,1,26,0,27,-74.189718,41.559695,,Orange
City,36071,maybrook village police department,3773,6,1,12,0,5,0,5,-74.20956,41.49063,,Orange
City,36071,greenwood lake village police department,3080,0,1,11,3,19,0,22,-74.294317,41.2225942,,Orange
City,36071,florida village police department,2931,0,0,0,0,2,0,2,-74.35505,41.33074,,Orange
City,36071,port jervis police department,8526,12,1,12,22,117,0,139,-74.6910433,41.3750809,,Orange
City,36071,tuxedo park village police department,598,0,0,0,0,0,0,0,-74.2003231,41.2041676,,Orange
City,36071,harriman village police department,2455,0,0,0,1,17,0,18,-74.1445899,41.308427,,Orange
City,36071,mount hope town police department,6625,0,0,0,3,14,0,17,-74.528861,41.47827,,Orange
City,36071,cornwall town police department,9538,0,0,0,2,4,0,6,-74.021522,41.4436157,,Orange
City,36071,highlands town police dept,8329,0,0,0,0,0,0,0,-73.9728684,41.3556365,,Orange
City,36071,newburgh town police department,31691,0,0,0,46,766,4,812,-74.06340368,41.5317401,,Orange
City,36071,tuxedo town police department,2969,0,0,0,0,0,0,0,-74.1730985,41.2475944,,Orange
City,36071,new windsor town police department,27980,0,0,0,20,299,0,319,-74.0628287,41.4818799,,Orange
City,36071,woodbury town police department,11133,0,0,0,6,180,0,186,-74.1059775,41.3645382,,Orange
City,36071,warwick town police department,18459,0,0,0,9,72,0,81,-74.3367079,41.2695742,,Orange
City,36071,deerpark town police department,7732,12,1,12,4,39,0,43,-74.663464,41.4591459,,Orange
City,36071,blooming grove town police department,11822,0,0,0,5,105,0,110,-74.1916,41.40705,,Orange
City,36071,montgomery town police department,9222,0,0,0,0,8,0,8,-74.1992263,41.522293,,Orange
City,36071,crawford town police department,9210,0,0,0,2,21,0,23,-74.377064,41.621893,,Orange
City,36071,chester town police department,8095,0,0,0,0,7,0,7,-74.275081,41.339698,,Orange
City,36071,wallkill town police department,29159,0,0,0,49,630,0,679,-74.3750022,41.4670444,,Orange
City,36071,goshen town police department,8938,12,1,12,1,18,0,19,-74.3525148,41.3960657,,Orange
County,36073,orleans county sheriff's office,26849,0,0,0,12,84,0,96,-78.2222623,43.2391071,,Orleans
City,36073,albion village police department,5698,0,0,0,24,147,0,171,-78.1923194,43.2480994,,Orleans
City,36073,holley village police department,1669,0,0,0,1,9,0,10,-78.0266826,43.2264486,,Orleans
City,36073,medina village police department,5613,0,0,0,14,80,0,94,-78.387183,43.218936,,Orleans
County,36075,oswego county sheriff's office,81507,12,1,12,35,260,0,295,-76.4800092,43.4314795,,Oswego
City,36075,fulton police department,11017,0,0,0,9,258,0,267,-76.4151,43.321,,Oswego
City,36075,oswego police department,17138,12,1,12,41,453,0,494,-76.511238,43.454709,,Oswego
City,36075,central square vlg police dept,1740,0,0,0,0,40,0,40,-76.1370809,43.2845658,,Oswego
City,36075,pulaski village police department,2211,0,0,0,0,29,0,29,-76.125797,43.570383,,Oswego
City,36075,phoenix vlg police dept,2226,0,0,0,3,7,0,10,-76.299044,43.229298,,Oswego
County,36077,otsego county sheriff's office,43171,0,1,8,7,15,0,22,-75.0611147,42.5779779,,Otsego
City,36077,oneonta police department,13904,11,1,12,19,175,0,194,-75.0637217,42.4510248,,Otsego
City,36077,cooperstown village police department,1743,0,0,0,0,1,0,1,-74.924321,42.7006303,,Otsego
County,36079,putnam county sheriff's office,46063,0,0,0,12,117,0,129,-73.6765,41.4252,,Putnam
City,36079,cold spring vlg police dept,1940,0,0,0,0,12,0,12,-73.954583,41.4200937,,Putnam
City,36079,brewster village pd brewster,2329,0,0,0,2,9,0,11,-73.607069,41.395566,,Putnam
City,36079,carmel town police department,34093,10,1,12,5,113,0,118,-73.7236408,41.3774592,,Putnam
City,36079,kent town police department,13123,0,0,0,1,38,0,39,-73.6708308,41.4784354,,Putnam
County,36083,rensselaer county sheriff's office,54944,0,0,0,20,147,0,167,-73.7005691,42.709114,,Rensselaer
City,36083,rensselaer police dept,9149,0,0,0,19,83,0,102,-73.742898,42.6425794,,Rensselaer
City,36083,troy police department,49052,0,0,0,330,1439,9,1769,-73.687,42.73,,Rensselaer
City,36083,hoosick falls village police department,3331,0,0,0,2,14,0,16,-73.3515001,42.9011892,,Rensselaer
City,36083,nassau village police department,1094,0,0,0,1,5,0,6,-73.609291,42.512088,,Rensselaer
City,36083,east greenbush town police department,16186,0,0,0,15,530,0,545,-73.7017858,42.5909135,,Rensselaer
City,36083,north greenbush town police department,12264,0,0,0,12,179,0,191,-73.6771662,42.6718547,,Rensselaer
City,36083,schodack town police department,11617,0,0,0,6,47,0,53,-73.6771662,42.5191196,,Rensselaer
County,36087,rockland county sheriff's office,10682,11,1,1,0,0,0,0,-73.9945993,41.1472342,,Rockland
City,36087,piermont village police department,2533,8,1,9,0,4,0,4,-73.918192,41.0420414,,Rockland
City,36087,south nyack - grand view village police department,3294,11,0,0,1,15,0,16,-73.9217288,41.0835837,,Rockland
City,36087,spring valley village police department,32356,12,1,12,96,344,2,440,-74.0405979,41.1216407,,Rockland
City,36087,suffern village police department,11037,0,1,10,2,47,0,49,-74.1495889,41.1148179,,Rockland
City,36087,clarkstown town police department,80462,12,1,12,44,875,0,919,-73.959494,41.1259715,,Rockland
City,36087,haverstraw town police department,37034,0,1,8,29,225,2,254,-73.9645837,41.1975947,,Rockland
City,36087,orangetown town police department,37320,12,1,10,15,289,1,304,-73.9477384,41.0555461,,Rockland
City,36087,ramapo town police department,95165,0,0,0,73,485,0,558,-74.1684787,41.1412064,,Rockland
City,36087,stony point town police department,15338,12,1,12,3,45,0,48,-73.9870847,41.2295386,,Rockland
Other State Agency,36087,nys park police palisades region,0,0,0,0,0,0,0,0,-74.2179326,43.2994285,,-
County,36089,st. lawrence county sheriff's office,61104,12,1,12,8,20,0,28,-74.930206,44.4473142,,St. Lawrence
City,36089,ogdensburg police department,10364,12,1,12,22,131,0,153,-75.475097,44.6973219,,St. Lawrence
City,36089,massena village police department,10123,11,1,11,7,90,0,97,-74.891865,44.9281049,,St. Lawrence
City,36089,canton village police department,6516,4,1,12,0,13,0,13,-75.17083883,44.595036,,St. Lawrence
City,36089,gouverneur village police department,3637,12,1,12,0,0,0,0,-75.462993,44.3367281,,St. Lawrence
City,36089,norwood vlg police dept,1549,0,0,0,3,15,0,18,-74.99672,44.74968,,St. Lawrence
City,36089,potsdam village police department,8943,8,1,9,2,45,0,47,-74.9829816,44.6694123,,St. Lawrence
City,36089,norfolk town police dept,4380,0,0,0,1,1,0,2,-74.98689,44.79917,,St. Lawrence
County,36091,saratoga county sheriff's office,171244,12,1,12,66,890,0,956,-73.8736274,43.0201976,,Saratoga
City,36091,saratoga springs police department,28397,0,0,0,53,453,1,506,-73.784045,43.0832466,,Saratoga
City,36091,ballston spa village police department,5204,0,0,0,0,39,0,39,-73.8490111,43.0009086,,Saratoga
City,36091,mechanicville police department,5018,0,0,0,13,41,0,54,-73.685286,42.9036899,,Saratoga
City,36091,south glens falls village police department,3647,0,0,0,5,28,0,33,-73.6351168,43.2992389,,Saratoga
Other State Agency,36091,nys park police saratoga/capital region,0,0,0,0,0,0,0,0,-73.7485195,42.669682,,Saratoga
City,36091,waterford town police department,8466,0,0,0,3,17,0,20,-73.678697,42.790465,,Saratoga
City,36091,galway vlg police dept,190,0,0,0,,,,,-74.055834,43.027298,,Cattaraugus
City,36091,stillwater town police dept,7340,0,0,0,1,14,0,15,-73.6531731,42.9384101,,Saratoga
City,36093,schenectady police department,7446,0,1,12,468,1652,5,2120,-73.9369093,42.8145774,,Schenectady
County,36093,schenectady county sheriff's office,65176,12,1,12,4,10,0,14,-73.9399962,42.8099415,,Schenectady
City,36093,scotia village police department,7631,0,0,0,7,146,0,153,-73.9638118,42.8268917,,Schenectady
City,36093,glenville town police department,21609,0,0,0,12,313,0,325,-74.0520717,42.9292419,,Schenectady
City,36093,niskayuna town police department,22428,0,0,0,18,422,0,440,-73.8914407,42.8000049,,Schenectady
City,36093,rotterdam town police department,30071,0,1,12,35,715,0,750,-73.9709583,42.7870209,,Schenectady
County,36095,schoharie county sheriff's office,25492,0,1,12,4,37,0,41,-74.3718947,42.6889725,,Schoharie
City,36095,cobleskill village police department,4323,0,0,0,19,126,0,145,-74.4854172,42.677853,,Schoharie
City,36095,schoharie village pd schoharie,806,0,0,0,0,4,0,4,-74.3112254,42.6642037,,Schoharie
County,36097,schuyler county sheriff's office,15763,0,0,0,6,10,0,16,-76.8705473,42.3766269,,Schuyler
City,36097,watkins glen village police department,1874,0,0,0,0,7,0,7,-76.8732921,42.3806287,,Schuyler
County,36099,seneca county sheriff's office,19652,12,1,11,7,81,0,88,-76.8283,42.7197,,Seneca
City,36099,seneca falls town,8573,12,1,12,15,163,0,178,-76.7966215,42.9106219,,Seneca
City,36099,interlaken vlg police dept,598,0,0,0,0,0,0,0,-76.724572,42.618671,,Seneca
City,36099,waterloo vlg police dept,4842,12,1,11,10,35,1,45,-76.8650293,42.9043882,,Seneca
County,36101,steuben county sheriff's office,58880,0,1,9,10,76,0,86,-77.2953209,42.3495372,,Steuben
City,36101,corning police department,10469,0,0,0,33,274,1,307,-77.04733,42.14159,,Steuben
City,36101,hornell police department,8272,0,0,0,0,0,0,0,-77.6611025,42.3278477,,Steuben
City,36101,addison village police department,2458,0,0,0,6,7,0,13,-77.23757,42.103628,,Steuben
City,36101,bath village police department,5438,0,0,0,2,44,0,46,-77.317328,42.3357929,,Steuben
City,36101,canisteo vlg police dept,2120,0,0,0,1,4,0,5,-77.6058225,42.2703487,,Steuben
City,36101,cohocton town police dept,2435,0,0,0,0,3,0,3,-77.5072102,42.5022907,,Steuben
City,36101,painted post village police department,1939,0,0,0,1,2,0,3,-77.0941366,42.1620186,,Steuben
City,36101,hammondsport village police department,618,0,0,0,0,16,0,16,-77.2235873,42.4078495,,Steuben
City,36101,wayland village police department,1753,0,0,0,0,3,0,3,-77.591761,42.568122,,Steuben
County,36103,suffolk county sheriff's office,0,0,0,0,18,0,0,18,-72.6151169,40.9848784,,Suffolk
County,36103,suffolk county police department,1303112,0,0,0,1118,14966,30,16084,-72.6151169,40.9848784,,Suffolk
City,36103,amityville village police department,9387,0,0,0,5,61,2,66,-73.4170673,40.6789893,,Suffolk
City,36103,sag harbor village police department,2296,0,0,0,0,0,0,0,-72.2925819,40.9978773,,Suffolk
City,36103,northport village police department,7258,0,0,0,0,2,0,2,-73.3474691,40.9005559,,Suffolk
City,36103,southampton village police department,3330,0,0,0,0,45,0,45,-72.393649,40.887693,,Suffolk
City,36103,east hampton village police department,1140,0,0,0,1,23,0,24,-72.18281,40.969376,,Suffolk
City,36103,ocean beach village police dept,83,0,0,0,0,9,0,9,-73.1566,40.6492,,Suffolk
City,36103,huntington bay village police department,1436,0,0,0,0,7,0,7,-73.4148418,40.8998203,,Suffolk
City,36103,lloyd harbor village police department,3655,0,0,0,2,12,0,14,-73.4598432,40.9034315,,Suffolk
City,36103,quogue village police department,1019,0,0,0,1,31,0,32,-72.6090335,40.8180969,,Suffolk
City,36103,westhampton beach village police department,1806,0,0,0,0,24,0,24,-72.6458277,40.8093799,,Suffolk
City,36103,nissequogue village police department,1730,0,0,0,0,10,0,10,-73.1978899,40.9039869,,Suffolk
City,36103,asharoken village police department,644,0,0,0,0,1,0,1,-73.3598395,40.9278757,,Suffolk
City,36103,head of the harbor vlg pd,1455,0,0,0,0,0,0,0,-73.1578885,40.9034315,,Suffolk
City,36103,east hampton town police department,19927,0,0,0,2,86,0,88,-72.2500788,40.9557328,,Suffolk
City,36103,riverhead town police department,33461,0,0,0,28,479,0,507,-72.6620402,40.9170435,,Suffolk
City,36103,shelter island town police department,2419,0,0,0,0,0,0,0,-72.3386939,41.0681549,,Suffolk
City,36103,southampton town police department,51162,0,0,0,38,595,1,633,-72.5388485,40.8867053,,Suffolk
City,36103,southold town police department,19957,12,1,12,11,270,0,281,-72.4261962,41.0648222,,Suffolk
Other State Agency,36103,nys park police long island region,0,0,0,0,0,0,0,0,-73.134961,40.789142,,-
County,36105,sullivan county sheriff's office,51177,0,0,0,23,222,3,245,-74.7025,41.6698,,Sullivan
City,36105,liberty village police department,4182,0,0,0,24,150,1,174,-74.74583,41.79917,,Sullivan
City,36105,monticello village police department,6338,0,0,0,23,83,0,106,-74.6819164,41.6542875,,Sullivan
City,36105,woodridge vlg police dept,771,0,0,0,3,11,0,14,-74.569612,41.708479,,Sullivan
City,36105,fallsburg town police department,12264,0,0,0,0,5,0,5,-74.62882,41.7074799,,Sullivan
County,36107,tioga county sheriff's office,39668,0,1,8,14,118,0,132,-76.2663066,42.1416852,,Tioga
City,36107,waverly village police department,4083,0,0,0,0,4,0,4,-76.53918,42.00091,,Tioga
City,36107,owego village police department,3846,0,0,0,15,176,0,191,-76.2621549,42.1034075,,Tioga
County,36109,tompkins county sheriff's office,61078,0,0,0,27,242,0,269,-76.4668825,42.4927791,,Tompkins
City,36109,ithaca police department,30927,0,0,0,98,1159,0,1257,-76.4974745,42.4370315,,Tompkins
City,36109,dryden village police department,2066,0,0,0,3,57,0,60,-76.2978284,42.4895252,,Tompkins
City,36109,groton village police department,2211,0,0,0,0,35,0,35,-76.367083,42.590517,,Tompkins
City,36109,trumansburg vlg police dept,1709,0,0,0,0,26,0,26,-76.6660589,42.5422939,,Tompkins
City,36109,cayuga heights village police department,3589,0,0,0,2,15,0,17,-76.4866067,42.4595171,,Tompkins
Other State Agency,36109,nys park police finger lakes region,0,0,0,0,0,0,0,0,-76.9297247,42.7238165,,-
County,36111,ulster county sheriff's office,41917,12,1,12,5,117,0,122,-74.0163128,41.9126347,,Ulster
City,36111,kingston police department,22682,0,0,0,85,460,3,545,-73.9856,41.921,,Ulster
Other,36111,ulster reg gng enf nrc t,0,11,1,3,1,0,0,1,,,,Ulster
City,36111,ellenville village police department,4000,0,0,0,9,20,0,29,-74.3957099,41.7170379,,Ulster
City,36111,new paltz town & village police department,14040,9,0,0,0,0,0,0,-74.0868095,41.7475933,,Ulster
City,36111,lloyd town police department,10484,10,1,12,6,81,0,87,-73.964046,41.71714,,Ulster
City,36111,marlborough town police department,8579,5,1,12,2,19,0,21,-73.9601776,41.6592464,,Ulster
City,36111,plattekill town police dept,10168,12,1,12,0,29,0,29,-74.0593872,41.6239741,,Ulster
City,36111,woodstock town police department,5754,11,1,12,4,43,0,47,-74.1214941,42.0405945,,Ulster
City,36111,saugerties town police department,18956,11,1,11,21,146,1,167,-73.9529126,42.0775906,,Ulster
City,36111,shandaken town police department,2921,8,1,9,0,1,0,1,-74.3954274,42.1200896,,Ulster
City,36111,rosendale town police department,5755,10,1,4,0,19,0,19,-74.0810669,41.8443125,,Ulster
City,36111,ulster town police department,12626,11,1,6,11,155,0,166,-74.0027535,41.9766507,,Ulster
City,36111,olive town police department,4254,0,0,0,0,3,0,3,-74.229079,41.974996,,Ulster
City,36111,shawangunk town police department,13782,11,1,9,3,39,0,42,-74.1944529,41.6284438,,Ulster
County,36113,warren county sheriff's office,46897,12,1,11,32,306,0,338,-73.69902,43.36007,,Warren
City,36113,glens falls police department,14215,12,1,12,10,105,0,115,-73.6443307,43.3108637,,Warren
City,36113,bolton town police department,2239,0,0,0,0,6,0,6,-73.6557142,43.5571029,,Warren
County,36115,washington county sheriff's office,41826,0,0,0,21,73,0,94,-73.58899359,43.28901054,,Washington
City,36115,cambridge village police department,1803,0,0,0,1,17,0,18,-73.3778424,43.0371415,,Washington
City,36115,greenwich village police department,1708,0,0,0,0,11,0,11,-73.503115,43.091569,,Washington
City,36115,fort edward village police department,3256,7,0,0,2,2,0,4,-73.5845597,43.2670175,,Washington
City,36115,granville village police department,2428,0,0,0,2,7,0,9,-73.266641,43.402174,,Washington
City,36115,hudson falls village police department,7029,0,0,0,7,17,0,24,-73.5859487,43.3006281,,Washington
City,36115,whitehall village police department,2533,0,0,0,0,0,0,0,-73.403113,43.55326,,Washington
County,36117,wayne county sheriff's office,61892,0,0,0,42,217,0,259,-77.0317,43.066,,Wayne
City,36117,newark village police department,8784,0,0,0,31,294,0,325,-77.093574,43.04607,,Wayne
City,36117,wolcott village police department,1604,0,0,0,0,0,0,0,-76.815515,43.21968,,Wayne
City,36117,clyde village police department,1948,0,0,0,5,34,0,39,-76.870477,43.083574,,Wayne
City,36117,palmyra village police department,3299,0,0,0,0,10,0,10,-77.2319441,43.0632887,,Wayne
City,36117,sodus village police department,1696,0,0,0,0,0,0,0,-77.0615419,43.2355352,,Wayne
City,36117,sodus point village police department,854,0,0,0,0,0,0,0,-76.9891355,43.2717322,,Wayne
City,36117,macedon town police department,8856,0,0,0,9,88,0,97,-77.2988746,43.0692299,,Wayne
County,36119,westchester county department of public safety,69019,0,0,0,15,154,0,169,-73.7948516,41.1220194,,Westchester
City,36119,peekskill police department,24371,0,0,0,33,177,3,210,-73.9223596,41.2906825,,Westchester
City,36119,white plains police department,58240,0,0,0,72,961,2,1033,-73.7629097,41.0339862,,Westchester
City,36119,mount vernon police department,67339,0,0,0,382,894,7,1276,-73.8385051,40.9128802,,Westchester
City,36119,new rochelle police department,78707,12,1,11,20,263,0,283,-73.7863858,40.9189368,,Westchester
City,36119,ossining village police department,24786,0,0,0,17,197,0,214,-73.8639906,41.1585595,,Westchester
City,36119,port chester village police department,29181,0,0,0,22,212,0,234,-73.6656834,41.0017643,,Westchester
City,36119,yonkers police department,200816,11,1,11,653,2002,7,2655,-73.8971364,40.9302933,,Westchester
City,36119,rye police department,15692,0,0,0,0,20,0,20,-73.6830864,40.9852935,,Westchester
City,36119,mamaroneck village police department,19154,0,0,0,20,182,0,202,-73.7350082,40.9491093,,Westchester
City,36119,scarsdale village police department,17953,12,1,3,3,123,0,126,-73.7845768,41.0050977,,Westchester
City,36119,croton-on-hudson village police department,8097,0,0,0,2,40,0,42,-73.8912481,41.2084278,,Westchester
City,36119,bronxville village police department,6422,0,0,0,1,22,0,23,-73.8320784,40.9381544,,Westchester
City,36119,tuckahoe village police department,6554,0,0,0,2,21,0,23,-73.827356,40.9503764,,Westchester
City,36119,ardsley village police department,4515,0,0,0,2,28,0,30,-73.8437452,41.0106531,,Westchester
City,36119,dobbs ferry village police department,11037,0,0,0,2,96,0,98,-73.872635,41.0145418,,Westchester
City,36119,hastings village police department,7853,0,0,0,2,94,0,96,-73.883833,40.995345,,Westchester
City,36119,irvington village police department,6478,0,0,0,2,29,0,31,-73.868075,41.039554,,Westchester
City,36119,tarrytown village police department,11383,12,1,12,9,56,0,65,-73.8587461,41.0762077,,Westchester
City,36119,larchmont village police department,6112,0,0,0,4,82,0,86,-73.75156,40.927242,,Westchester
City,36119,briarcliff manor village police department,8126,0,0,0,2,34,0,36,-73.840231,41.1402322,,Westchester
City,36119,sleepy hollow village police department,10064,0,0,0,0,27,0,27,-73.8584684,41.085652,,Westchester
City,36119,pleasantville village police department,7280,0,0,0,4,55,0,59,-73.7924152,41.1333371,,Westchester
City,36119,pelham village police department,6956,0,0,0,1,57,0,58,-73.8079111,40.9098215,,Westchester
City,36119,pelham manor village police department,5535,0,0,0,1,134,0,135,-73.8057716,40.8960672,,Westchester
City,36119,elmsford village police department,5279,0,0,0,1,11,0,12,-73.8202093,41.0537974,,Westchester
City,36119,buchanan village police department,2233,0,0,0,0,12,0,12,-73.9394989,41.2615339,,Westchester
City,36119,bedford police department,17672,12,1,12,2,42,0,44,-73.6987,41.2399,,Westchester
City,36119,eastchester town police department,19991,0,0,0,1,136,0,137,-73.8095574,40.9595605,,Westchester
City,36119,greenburgh town police department,44727,12,1,12,25,437,0,462,-73.8654333,41.0339577,,Westchester
City,36119,harrison town police department,29110,0,0,0,6,126,0,132,-73.72422,40.99781,,Westchester
City,36119,lewisboro town police department,12533,0,0,0,0,0,0,0,-73.5226245,41.2381511,,Westchester
City,36119,mamaroneck town police department,12017,0,0,0,0,54,0,54,-73.7326309,40.9487097,,Westchester
City,36119,mount pleasant town police department,26966,0,0,0,12,140,0,152,-73.77767,41.096296,,Westchester
City,36119,new castle town police department,17824,0,0,0,0,77,0,77,-73.774623,41.155455,,Westchester
City,36119,north castle town police department,12266,0,0,0,1,88,0,89,-73.6889378,41.1361412,,Westchester
City,36119,pound ridge town police department,5133,0,0,0,1,40,0,41,-73.57482,41.208442,,Westchester
City,36119,yorktown town police department,36284,12,1,12,7,198,0,205,-73.783196,41.276982,,Westchester
City,36119,rye brook village police department,9542,0,0,0,0,76,0,76,-73.6813591,41.0188032,,Westchester
County,36121,wyoming county sheriff's office,28481,11,1,12,20,128,0,148,-78.1330728,42.7438352,,Wyoming
City,36121,arcade village police department,1919,7,1,11,3,14,0,17,-78.42454,42.53466,,Wyoming
City,36121,attica village police department,2389,0,0,0,0,14,0,14,-78.2802946,42.8642267,,Wyoming
City,36121,perry village police department,3471,0,0,0,3,49,0,52,-78.00076,42.719379,,Wyoming
City,36121,warsaw village police department,3225,0,0,0,6,31,0,37,-78.13417,42.740514,,Wyoming
Other State Agency,36121,nys park police genesee region,0,0,0,0,0,0,0,0,-74.2179326,43.2994285,,Genesee
County,36123,yates county sheriff's office,19804,11,1,12,10,123,1,133,-77.055338,42.6658511,,Yates
City,36123,penn yan police department,4900,0,0,0,3,59,0,62,-77.0548082,42.6610345,,Yates
State Police,36001,sp: albany county,0,0,0,0,26,79,0,105,-73.81166,42.68109,,Albany
State Police,36003,sp: allegany county,0,0,0,0,56,215,2,271,-78.026115,42.247871,,Allegany
State Police,36007,sp: broome county,0,0,0,0,74,389,1,463,-75.830283,42.161977,,Broome
State Police,36009,sp: cattaraugus county,0,0,0,0,39,200,0,239,-78.662421,42.239169,,Cattaraugus
State Police,36011,sp: cayuga county,0,0,0,0,55,193,0,248,-76.574587,43.008546,,Cayuga
State Police,36013,sp: chautauqua county,0,0,0,0,32,126,0,158,-79.407595,42.304216,,Chautauqua
State Police,36015,sp: chemung county,0,0,0,0,89,165,1,254,-76.747179,42.15528,,Chemung
State Police,36017,sp: chenango county,0,0,0,0,56,154,0,210,-75.604905,42.489732,,Chenango
State Police,36019,sp: clinton county,0,0,0,0,94,740,1,834,-73.705643,44.752712,,Clinton
State Police,36021,sp: columbia county,0,0,0,0,37,161,0,198,-73.626803,42.247728,,Columbia
State Police,36023,sp: cortland county,0,0,0,0,23,83,0,106,-76.07624,42.594039,,Cortland
State Police,36025,sp: delaware county,0,0,0,0,28,135,0,163,-74.966728,42.193986,,Delaware
State Police,36027,sp: dutchess county,0,0,0,0,155,451,1,606,-73.739951,41.75501,,Dutchess
State Police,36029,sp: erie county,0,0,0,0,38,288,0,326,-78.778192,42.752759,,Erie
State Police,36031,sp: essex county,0,0,0,0,44,206,0,250,-73.777573,44.108971,,Essex
State Police,36033,sp: franklin county,0,0,0,0,42,330,0,372,-74.31067,44.594376,,Franklin
State Police,36035,sp: fulton county,0,0,0,0,11,70,0,81,-74.423678,43.115609,,Fulton
State Police,36037,sp: genesee county,0,0,0,0,8,91,0,99,-78.192778,43.00091,,Genesee
State Police,36039,sp: greene county,0,0,0,0,172,198,0,370,-74.149554,42.286964,,Greene
State Police,36041,sp: hamilton county,0,0,0,0,6,25,0,31,-74.502456,43.657879,,Hamilton
State Police,36043,sp: herkimer county,0,0,0,0,44,174,0,218,-74.841097,43.571009,,Herkimer
State Police,36045,sp: jefferson county,0,0,0,0,75,517,0,592,-76.053514,43.995371,,Jefferson
State Police,36049,sp: lewis county,0,0,0,0,16,75,0,91,-75.44414,43.782681,,Lewis
State Police,36051,sp: livingston county,0,0,0,0,16,32,0,48,-77.769779,42.727485,,Livingston
State Police,36053,sp: madison county,0,0,0,0,32,133,0,165,-75.663575,42.910026,,Madison
State Police,36055,sp: monroe county,0,0,0,0,45,49,0,94,-77.664656,43.464475,,Monroe
State Police,36057,sp: montgomery cnty,0,0,0,0,14,92,1,106,-74.435357,42.900891,,Montgomery
State Police,36059,sp: nassau county,0,0,0,0,9,10,0,19,-73.589419,40.729612,,Nassau
State Police,36061,sp: new york county,0,0,0,0,9,16,0,25,-73.970174,40.776557,,-
State Police,36063,sp: niagara county,0,0,0,0,38,214,1,252,-79.015396,43.129683,,Niagara
State Police,36065,sp: oneida county,0,0,0,0,88,358,1,446,-75.434282,43.242727,,Oneida
State Police,36067,sp: onondaga county,0,0,0,0,76,579,0,655,-76.196117,43.00653,,Onondaga
State Police,36069,sp: ontario county,0,0,0,0,34,247,0,281,-77.303277,42.856695,,Ontario
State Police,36071,sp: orange county,0,0,0,0,105,390,0,495,-74.306252,41.40241,,Orange
State Police,36073,sp: orleans county,0,0,0,0,12,64,0,76,-78.229726,43.502287,,Orleans
State Police,36075,sp: oswego county,0,0,0,0,88,442,0,530,-76.209258,43.461443,,Oswego
State Police,36077,sp: otsego county,0,0,0,0,44,329,0,373,-75.028841,42.629776,,Otsego
State Police,36079,sp: putnam county,0,0,0,0,17,71,0,88,-73.743882,41.427904,,Putnam
State Police,36083,sp: rensselaer county,0,0,0,0,44,272,0,316,-73.513845,42.710421,,Rensselaer
State Police,36087,sp: rockland county,0,0,0,0,3,4,0,7,-74.024645,41.154639,,Rockland
State Police,36089,sp: st lawrence county,0,0,0,0,60,318,1,378,-75.074311,44.488112,,St. Lawrence
State Police,36091,sp: saratoga county,0,0,0,0,79,459,2,538,-73.855387,43.106135,,Saratoga
State Police,36093,sp: schenectady county,0,0,0,0,10,38,0,48,-74.043548,42.817539,,Schenectady
State Police,36095,sp: schoharie county,0,0,0,0,19,100,0,119,-74.438172,42.591294,,Schoharie
State Police,36097,sp: schuyler county,0,0,0,0,4,23,0,27,-76.938603,42.419776,,Schuyler
State Police,36099,sp: seneca county,0,0,0,0,19,88,0,107,-76.827088,42.782294,,Seneca
State Police,36101,sp: steuben county,0,0,0,0,63,316,2,379,-77.385525,42.266725,,Steuben
State Police,36103,sp: suffolk county,0,0,0,0,19,18,0,37,-72.692218,40.943554,,Suffolk
State Police,36105,sp: sullivan county,0,0,0,0,71,206,0,277,-74.76468,41.720176,,Sullivan
State Police,36107,sp: tioga county,0,0,0,0,29,67,0,96,-76.297456,42.178057,,Tioga
State Police,36109,sp: tompkins county,0,0,0,0,25,226,0,251,-76.473481,42.453003,,Tompkins
State Police,36111,sp: ulster county,0,0,0,0,65,370,1,435,-74.265458,41.947216,,Ulster
State Police,36113,sp: warren county,0,0,0,0,33,231,0,264,-73.838139,43.555105,,Warren
State Police,36115,sp: washington county,0,0,0,0,33,92,0,125,-73.439428,43.312377,,Washington
State Police,36117,sp: wayne county,0,0,0,0,67,369,1,436,-77.063164,43.458758,,Wayne
State Police,36119,sp: westchester county,0,0,0,0,111,332,1,443,-73.745912,41.15277,,Westchester
State Police,36121,sp: wyoming county,0,0,0,0,13,26,0,39,-78.228567,42.701363,,Wyoming
State Police,36123,sp: yates county,0,0,0,0,3,23,0,26,-77.104324,42.638237,,Yates
University or College,36001,state university at albany police,0,0,0,0,0,62,0,62,-73.8247903,42.6850273,SUNY Albany,Albany
University or College,36003,state university college of technology at alfred p,0,0,0,0,3,14,0,17,-77.78639352,42.25261732,SUNY Alfred,Allegany
University or College,36007,binghamton university police,0,0,0,0,0,87,0,87,-75.9694885,42.0894288,SUNY Binghamton,Broome
University or College,36013,state university college at fredonia police,0,11,1,9,0,10,0,10,-79.3317105,42.4400576,SUNY Fredonia,Chautauqua
University or College,36019,state university college at plattsburgh police,0,0,0,0,1,28,0,29,-73.4529124,44.6994873,SUNY Plattsburgh,Clinton
University or College,36023,state university at cortland police,0,0,0,0,2,12,0,14,-76.1804843,42.6011813,SUNY Cortland,Cortland
University or College,36025,suny college: technology,0,0,0,0,0,11,0,11,-74.9245,42.2707,SUNY Delhi,Delaware
University or College,36029,state university at buffalo police,0,7,1,12,6,92,0,98,-78.780604,42.9986,SUNY Buffalo,Erie
University or College,36029,buffalo state college police,0,11,1,12,6,38,0,44,-78.8831318,42.9334108,SUNY Buffalo State College,Erie
University or College,36047,suny health science center at brooklyn police,0,0,0,0,0,17,0,17,-73.9455865,40.6555364,SUNY Downstate Medical ,
University or College,36051,state university college at geneseo police,0,7,1,9,0,20,0,20,-77.8238627,42.7960069,SUNY Geneseo,Livingston
University or College,36053,morrisville state college police,0,0,1,9,3,28,0,31,-75.6405117,42.8934515,SUNY Morrisville,Madison
University or College,36055,state university college at brockport police,0,10,1,12,0,20,0,20,-77.9391797,43.2136713,SUNY Brockport,Monroe
University or College,,nanoscale science and engineering,0,0,0,0,,,,,-73.830789,42.690486,SUNY Nanoscale Science and Engineering,Albany
University or College,36059,state university college at old westbury police,0,0,0,0,2,6,0,8,-73.5717581,40.797082,SUNY Old Westbury,Nassau
University or College,36061,"state university of new york, college of optometry",0,11,1,3,0,1,0,1,-73.982243,40.7544085,SUNY Optometry,-
University or College,36065,suny institute of technology at utica/rome police,0,12,1,6,0,6,0,6,-75.232664,43.100903,SUNY Polytechnic Institute,Oneida
University or College,36067,suny college of environmental science & forestry p,0,0,0,0,0,18,0,18,-76.1366182,43.0345102,SUNY Environmental Science ,-
University or College,36067,suny upstate medical university police,0,0,0,0,6,74,0,80,-76.139862,43.0421295,SUNY Upstate Medical,Onondaga
University or College,36075,oswego state university police,0,12,1,12,2,38,0,40,-76.5434378,43.4508509,SUNY Oswego,Oswego
University or College,36077,state university college at oneonta police,0,0,0,0,0,18,0,18,-75.065155,42.468769,SUNY Oneonta,Otsego
University or College,36089,suny canton police,0,0,0,0,0,7,0,7,-75.1856217,44.6029123,SUNY Canton,St. Lawrence
University or College,36089,state university college at potsdam police,0,0,0,0,1,25,0,26,-74.9718151,44.66539126,SUNY Potsdam,St. Lawrence
University or College,36095,suny college of agriculture & technology at cobles,0,0,0,0,1,6,0,7,-74.498398,42.673005,SUNY Cobleskill,Schoharie
University or College,36103,farmingdale state college police,0,11,1,11,0,6,0,6,-73.4266988,40.7529167,SUNY Farmingdale,Suffolk
University or College,36103,state university at stony brook police,0,11,1,8,11,81,0,92,-73.1204032,40.908119,SUNY Stony Brook,Suffolk
University or College,,cornell university,0,11,1,12,,,,,-76.4735027,42.4534492,,Tompkins
University or College,,ithaca college,0,0,0,0,,,,,-76.4969344,42.4199229,,Tompkins
University or College,36111,state university college at new paltz police,0,12,1,12,1,20,0,21,-74.0868095,41.7475933,SUNY New Paltz,Ulster
University or College,36119,purchase college police,0,0,0,0,0,11,0,11,-73.700419,41.0470553,SUNY Purchase,Westchester
University or College,36005,state university of new york maritime college poli,0,0,0,0,0,11,0,11,-73.796808,40.8074244,SUNY Maritime ,-
